{"trip":{"id":44,"origin":"{:lat=\u003e39.7392358, :lng=\u003e-104.990251}","destination":"{:lat=\u003e36.4072485, :lng=\u003e-105.5730665}","created_at":"2019-10-29T05:03:46.247Z","updated_at":"2019-10-29T05:03:46.247Z","user_id":112,"distance":"287 mi","duration":"4 hours 42 mins"},"attractions":[[{"id":"pmhj7SUEILtheOxURxpbTA","alias":"roxborough-state-park-littleton","name":"Roxborough State Park","image_url":"https://s3-media1.fl.yelpcdn.com/bphoto/M4t5nuUqOPH_WieoXi85qw/o.jpg","is_closed":false,"url":"https://www.yelp.com/biz/roxborough-state-park-littleton?adjust_creative=lQBDH1JJAA5pG8BZW_9NVQ\u0026utm_campaign=yelp_api_v3\u0026utm_medium=api_v3_business_search\u0026utm_source=lQBDH1JJAA5pG8BZW_9NVQ","review_count":63,"categories":[{"alias":"parks","title":"Parks"}],"rating":4.5,"coordinates":{"latitude":39.4216346740723,"longitude":-105.063537597656},"transactions":[],"location":{"address1":"4751 Roxborough Dr","address2":"","address3":"","city":"Littleton","zip_code":"80125","country":"US","state":"CO","display_address":["4751 Roxborough Dr","Littleton, CO 80125"]},"phone":"+13039733959","display_phone":"(303) 973-3959","distance":6850.421552473899},{"id":"4FgsVEaMgDtntPffxIRsyw","alias":"pancake-rocks-trail-divide","name":"Pancake Rocks Trail","image_url":"https://s3-media2.fl.yelpcdn.com/bphoto/LUqlYJI44wWUFzaijnzudg/o.jpg","is_closed":false,"url":"https://www.yelp.com/biz/pancake-rocks-trail-divide?adjust_creative=lQBDH1JJAA5pG8BZW_9NVQ\u0026utm_campaign=yelp_api_v3\u0026utm_medium=api_v3_business_search\u0026utm_source=lQBDH1JJAA5pG8BZW_9NVQ","review_count":1,"categories":[{"alias":"hiking","title":"Hiking"},{"alias":"parks","title":"Parks"},{"alias":"climbing","title":"Climbing"}],"rating":5.0,"coordinates":{"latitude":38.947424,"longitude":-105.146419},"transactions":[],"location":{"address1":"Highway 67","address2":"","address3":"","city":"Divide","zip_code":"80814","country":"US","state":"CO","display_address":["Highway 67","Divide, CO 80814"]},"phone":"","display_phone":"","distance":7128.682692475121},{"id":"_yIkcNHPJ8Y-uh951OiMeQ","alias":"colorado-jeep-tours-canon-city","name":"Colorado Jeep Tours","image_url":"https://s3-media1.fl.yelpcdn.com/bphoto/KDQ0hJOkGwBb-2_JTQ8y_g/o.jpg","is_closed":false,"url":"https://www.yelp.com/biz/colorado-jeep-tours-canon-city?adjust_creative=lQBDH1JJAA5pG8BZW_9NVQ\u0026utm_campaign=yelp_api_v3\u0026utm_medium=api_v3_business_search\u0026utm_source=lQBDH1JJAA5pG8BZW_9NVQ","review_count":15,"categories":[{"alias":"tours","title":"Tours"}],"rating":5.0,"coordinates":{"latitude":38.4462199,"longitude":-105.213089},"transactions":[],"location":{"address1":"2320 E Main St","address2":null,"address3":"","city":"Canon City","zip_code":"81212","country":"US","state":"CO","display_address":["2320 E Main St","Canon City, CO 81212"]},"phone":"+17192756339","display_phone":"(719) 275-6339","distance":20428.413910597887},{"id":"8b9L-RbVqLI5pcVtnhU6Qg","alias":"fort-garland-museum-fort-garland","name":"Fort Garland Museum","image_url":"","is_closed":false,"url":"https://www.yelp.com/biz/fort-garland-museum-fort-garland?adjust_creative=lQBDH1JJAA5pG8BZW_9NVQ\u0026utm_campaign=yelp_api_v3\u0026utm_medium=api_v3_business_search\u0026utm_source=lQBDH1JJAA5pG8BZW_9NVQ","review_count":5,"categories":[{"alias":"museums","title":"Museums"}],"rating":5.0,"coordinates":{"latitude":37.4239199,"longitude":-105.4315615},"transactions":[],"location":{"address1":"29477 Highway 159","address2":null,"address3":null,"city":"Fort Garland","zip_code":"81133","country":"US","state":"CO","display_address":["29477 Highway 159","Fort Garland, CO 81133"]},"phone":"+17193793137","display_phone":"(719) 379-3137","distance":11461.975707282349},{"id":"hr4TnQbhhJnE4ivbCncPlw","alias":"riverside-funeral-home-of-santa-fe-santa-fe-3","name":"Riverside Funeral Home of Santa Fe","image_url":"https://s3-media2.fl.yelpcdn.com/bphoto/t48yDnhO-sqFwceAUqBJbw/o.jpg","is_closed":false,"url":"https://www.yelp.com/biz/riverside-funeral-home-of-santa-fe-santa-fe-3?adjust_creative=lQBDH1JJAA5pG8BZW_9NVQ\u0026utm_campaign=yelp_api_v3\u0026utm_medium=api_v3_business_search\u0026utm_source=lQBDH1JJAA5pG8BZW_9NVQ","review_count":3,"categories":[{"alias":"cremationservices","title":"Cremation Services"},{"alias":"petcremation","title":"Pet Cremation Services"}],"rating":5.0,"coordinates":{"latitude":35.65125,"longitude":-105.99744},"transactions":[],"location":{"address1":"3232 Cerrillos Rd","address2":null,"address3":"","city":"Santa Fe","zip_code":"87507","country":"US","state":"NM","display_address":["3232 Cerrillos Rd","Santa Fe, NM 87507"]},"phone":"+15053959150","display_phone":"(505) 395-9150","distance":132693.0615135593},{"id":"sxIONbV_UneNkiIrfnIysg","alias":"wild-earth-llama-adventures-taos","name":"Wild Earth Llama Adventures","image_url":"https://s3-media2.fl.yelpcdn.com/bphoto/l6MwilC2v3BY3w2jxQD71g/o.jpg","is_closed":false,"url":"https://www.yelp.com/biz/wild-earth-llama-adventures-taos?adjust_creative=lQBDH1JJAA5pG8BZW_9NVQ\u0026utm_campaign=yelp_api_v3\u0026utm_medium=api_v3_business_search\u0026utm_source=lQBDH1JJAA5pG8BZW_9NVQ","review_count":33,"categories":[{"alias":"tours","title":"Tours"}],"rating":5.0,"coordinates":{"latitude":36.40758,"longitude":-105.57411},"transactions":[],"location":{"address1":"","address2":null,"address3":"","city":"Taos","zip_code":"87571","country":"US","state":"NM","display_address":["Taos, NM 87571"]},"phone":"+18007585262","display_phone":"(800) 758-5262","distance":1.3403585357491978e-09}],[{"id":"SkSfSSM3srBgpboUvNnPBQ","alias":"best-tours-of-denver-denver","name":"Best Tours of Denver","image_url":"https://s3-media3.fl.yelpcdn.com/bphoto/cp_dNc8-22l2IOKwlpP3cg/o.jpg","is_closed":false,"url":"https://www.yelp.com/biz/best-tours-of-denver-denver?adjust_creative=lQBDH1JJAA5pG8BZW_9NVQ\u0026utm_campaign=yelp_api_v3\u0026utm_medium=api_v3_business_search\u0026utm_source=lQBDH1JJAA5pG8BZW_9NVQ","review_count":1,"categories":[{"alias":"historicaltours","title":"Historical Tours"},{"alias":"walkingtours","title":"Walking Tours"},{"alias":"hauntedhouses","title":"Haunted Houses"}],"rating":5.0,"coordinates":{"latitude":39.7312126159668,"longitude":-104.98225402832},"transactions":[],"location":{"address1":"","address2":"","address3":null,"city":"Denver","zip_code":"80203","country":"US","state":"CO","display_address":["Denver, CO 80203"]},"phone":"+17203659464","display_phone":"(720) 365-9464","distance":40748.56543265688}],[{"id":"62zh5DgwrZllCnW5VJ2x0g","alias":"rocky-mountain-dinosaur-resource-center-woodland-park","name":"Rocky Mountain Dinosaur Resource Center","image_url":"https://s3-media1.fl.yelpcdn.com/bphoto/NE-7sZvcWvnIMhag2an_Jw/o.jpg","is_closed":false,"url":"https://www.yelp.com/biz/rocky-mountain-dinosaur-resource-center-woodland-park?adjust_creative=lQBDH1JJAA5pG8BZW_9NVQ\u0026utm_campaign=yelp_api_v3\u0026utm_medium=api_v3_business_search\u0026utm_source=lQBDH1JJAA5pG8BZW_9NVQ","review_count":60,"categories":[{"alias":"museums","title":"Museums"}],"rating":3.5,"coordinates":{"latitude":38.9936218261719,"longitude":-105.05103302002},"transactions":[],"location":{"address1":"201 S Fairview St","address2":"","address3":"","city":"Woodland Park","zip_code":"80866","country":"US","state":"CO","display_address":["201 S Fairview St","Woodland Park, CO 80866"]},"phone":"+17196861820","display_phone":"(719) 686-1820","distance":5946.7182703925755},{"id":"8b9L-RbVqLI5pcVtnhU6Qg","alias":"fort-garland-museum-fort-garland","name":"Fort Garland Museum","image_url":"","is_closed":false,"url":"https://www.yelp.com/biz/fort-garland-museum-fort-garland?adjust_creative=lQBDH1JJAA5pG8BZW_9NVQ\u0026utm_campaign=yelp_api_v3\u0026utm_medium=api_v3_business_search\u0026utm_source=lQBDH1JJAA5pG8BZW_9NVQ","review_count":5,"categories":[{"alias":"museums","title":"Museums"}],"rating":5.0,"coordinates":{"latitude":37.4239199,"longitude":-105.4315615},"transactions":[],"location":{"address1":"29477 Highway 159","address2":null,"address3":null,"city":"Fort Garland","zip_code":"81133","country":"US","state":"CO","display_address":["29477 Highway 159","Fort Garland, CO 81133"]},"phone":"+17193793137","display_phone":"(719) 379-3137","distance":11461.975707282349},{"id":"eNafvIE9G2M9FvBKtGk7xw","alias":"taos-art-museum-and-fechin-house-taos","name":"Taos Art Museum and Fechin House","image_url":"https://s3-media2.fl.yelpcdn.com/bphoto/aeGntJmGhhyUcTKbw36x2Q/o.jpg","is_closed":false,"url":"https://www.yelp.com/biz/taos-art-museum-and-fechin-house-taos?adjust_creative=lQBDH1JJAA5pG8BZW_9NVQ\u0026utm_campaign=yelp_api_v3\u0026utm_medium=api_v3_business_search\u0026utm_source=lQBDH1JJAA5pG8BZW_9NVQ","review_count":7,"categories":[{"alias":"artmuseums","title":"Art Museums"}],"rating":5.0,"coordinates":{"latitude":36.4104729148882,"longitude":-105.56950584054},"transactions":[],"location":{"address1":"227 Paseo Del Publo Nrte","address2":"","address3":"","city":"Taos","zip_code":"87571","country":"US","state":"NM","display_address":["227 Paseo Del Publo Nrte","Taos, NM 87571"]},"phone":"+15757582690","display_phone":"(575) 758-2690","distance":479.66947207228316}],[{"id":"SeIe6N1byd-MaJSDK515TA","alias":"simply-magical-massage-englewood","name":"Simply Magical Massage","image_url":"https://s3-media2.fl.yelpcdn.com/bphoto/2oTbjxWqGle2AYk4IvzN2A/o.jpg","is_closed":false,"url":"https://www.yelp.com/biz/simply-magical-massage-englewood?adjust_creative=lQBDH1JJAA5pG8BZW_9NVQ\u0026utm_campaign=yelp_api_v3\u0026utm_medium=api_v3_business_search\u0026utm_source=lQBDH1JJAA5pG8BZW_9NVQ","review_count":75,"categories":[{"alias":"reflexology","title":"Reflexology"},{"alias":"reiki","title":"Reiki"},{"alias":"massage_therapy","title":"Massage Therapy"}],"rating":5.0,"coordinates":{"latitude":39.5829655,"longitude":-104.8461971},"transactions":[],"location":{"address1":"7355 S Peoria St","address2":"Ste 108","address3":"","city":"Englewood","zip_code":"80112","country":"US","state":"CO","display_address":["7355 S Peoria St","Ste 108","Englewood, CO 80112"]},"phone":"+17206286497","display_phone":"(720) 628-6497","distance":29785.587275602204},{"id":"BKt_kVggXCFsGHuOnmA2-Q","alias":"zenjen-massage-therapy-woodland-park","name":"ZenJen Massage Therapy","image_url":"https://s3-media2.fl.yelpcdn.com/bphoto/rClk8SGJT8i4Rcm6H2Srcg/o.jpg","is_closed":false,"url":"https://www.yelp.com/biz/zenjen-massage-therapy-woodland-park?adjust_creative=lQBDH1JJAA5pG8BZW_9NVQ\u0026utm_campaign=yelp_api_v3\u0026utm_medium=api_v3_business_search\u0026utm_source=lQBDH1JJAA5pG8BZW_9NVQ","review_count":3,"categories":[{"alias":"massage_therapy","title":"Massage Therapy"}],"rating":5.0,"coordinates":{"latitude":38.9937215,"longitude":-105.0597652},"transactions":[],"location":{"address1":"633 W Midland Ave","address2":null,"address3":"","city":"Woodland Park","zip_code":"80863","country":"US","state":"CO","display_address":["633 W Midland Ave","Woodland Park, CO 80863"]},"phone":"+16202171033","display_phone":"(620) 217-1033","distance":5161.032594043597},{"id":"mfowlx0iIzECsGFXfcmGnw","alias":"the-living-spa-taos","name":"The Living Spa","image_url":"https://s3-media2.fl.yelpcdn.com/bphoto/qF2wUR2AvvuBv23ZJULBrg/o.jpg","is_closed":false,"url":"https://www.yelp.com/biz/the-living-spa-taos?adjust_creative=lQBDH1JJAA5pG8BZW_9NVQ\u0026utm_campaign=yelp_api_v3\u0026utm_medium=api_v3_business_search\u0026utm_source=lQBDH1JJAA5pG8BZW_9NVQ","review_count":6,"categories":[{"alias":"spas","title":"Day Spas"}],"rating":4.5,"coordinates":{"latitude":36.40211,"longitude":-105.56856},"transactions":[],"location":{"address1":"317 Kit Carson Rd","address2":null,"address3":null,"city":"Taos","zip_code":"87571","country":"US","state":"NM","display_address":["317 Kit Carson Rd","Taos, NM 87571"]},"phone":"+15757379880","display_phone":"(575) 737-9880","distance":750.1323581537542}],[{"id":"dnHEvstOUAhUowt-U9d6Zg","alias":"la-dona-luz-inn-bed-and-breakfast-taos","name":"La Dona Luz Inn Bed \u0026 Breakfast","image_url":"https://s3-media2.fl.yelpcdn.com/bphoto/wuRZdChGkSUcqqQm-Wa63g/o.jpg","is_closed":false,"url":"https://www.yelp.com/biz/la-dona-luz-inn-bed-and-breakfast-taos?adjust_creative=lQBDH1JJAA5pG8BZW_9NVQ\u0026utm_campaign=yelp_api_v3\u0026utm_medium=api_v3_business_search\u0026utm_source=lQBDH1JJAA5pG8BZW_9NVQ","review_count":13,"categories":[{"alias":"bedbreakfast","title":"Bed \u0026 Breakfast"}],"rating":4.5,"coordinates":{"latitude":36.406929,"longitude":-105.572768},"transactions":[],"location":{"address1":"114 Kit Carson Rd","address2":"","address3":"","city":"Taos","zip_code":"87571","country":"US","state":"NM","display_address":["114 Kit Carson Rd","Taos, NM 87571"]},"phone":"+15757589000","display_phone":"(575) 758-9000","distance":44.44941435291832}],[{"id":"GNY8tKlbNO7uWL8UWUijgQ","alias":"lawson-adventure-park-and-resort-lawson","name":"Lawson Adventure Park \u0026 Resort","image_url":"https://s3-media2.fl.yelpcdn.com/bphoto/jnvgoNUqZUvHsG9H3d82GQ/o.jpg","is_closed":false,"url":"https://www.yelp.com/biz/lawson-adventure-park-and-resort-lawson?adjust_creative=lQBDH1JJAA5pG8BZW_9NVQ\u0026utm_campaign=yelp_api_v3\u0026utm_medium=api_v3_business_search\u0026utm_source=lQBDH1JJAA5pG8BZW_9NVQ","review_count":18,"categories":[{"alias":"climbing","title":"Climbing"},{"alias":"vacation_rentals","title":"Vacation Rentals"},{"alias":"rafting","title":"Rafting/Kayaking"}],"rating":3.5,"coordinates":{"latitude":39.7624627853717,"longitude":-105.639557542328},"transactions":[],"location":{"address1":"3440 Alvarado Rd","address2":null,"address3":"","city":"Lawson","zip_code":"80436","country":"US","state":"CO","display_address":["3440 Alvarado Rd","Lawson, CO 80436"]},"phone":"+18553727238","display_phone":"(855) 372-7238","distance":66518.43039501451},{"id":"-QdjrmCbdgw6DHnD_DhZhg","alias":"pikes-peak-paradise-bed-and-breakfast-woodland-park","name":"Pikes Peak Paradise Bed and Breakfast","image_url":"https://s3-media4.fl.yelpcdn.com/bphoto/jT94sfhb3dui22IOxDXQow/o.jpg","is_closed":false,"url":"https://www.yelp.com/biz/pikes-peak-paradise-bed-and-breakfast-woodland-park?adjust_creative=lQBDH1JJAA5pG8BZW_9NVQ\u0026utm_campaign=yelp_api_v3\u0026utm_medium=api_v3_business_search\u0026utm_source=lQBDH1JJAA5pG8BZW_9NVQ","review_count":29,"categories":[{"alias":"bedbreakfast","title":"Bed \u0026 Breakfast"},{"alias":"venues","title":"Venues \u0026 Event Spaces"}],"rating":4.5,"coordinates":{"latitude":38.9823163,"longitude":-105.1015322},"transactions":[],"location":{"address1":"236 Pinecrest Rd","address2":"","address3":"","city":"Woodland Park","zip_code":"80863","country":"US","state":"CO","display_address":["236 Pinecrest Rd","Woodland Park, CO 80863"]},"phone":"+17196876656","display_phone":"(719) 687-6656","distance":2416.696581725919},{"id":"U8P2eCTjt4tlfPisKRqVkg","alias":"victor-hotel-victor","name":"Victor Hotel","image_url":"https://s3-media2.fl.yelpcdn.com/bphoto/rAnxmd2kAXqCBsb0MkwXIA/o.jpg","is_closed":false,"url":"https://www.yelp.com/biz/victor-hotel-victor?adjust_creative=lQBDH1JJAA5pG8BZW_9NVQ\u0026utm_campaign=yelp_api_v3\u0026utm_medium=api_v3_business_search\u0026utm_source=lQBDH1JJAA5pG8BZW_9NVQ","review_count":18,"categories":[{"alias":"hotels","title":"Hotels"}],"rating":3.0,"coordinates":{"latitude":38.7105105362868,"longitude":-105.14114151483},"transactions":[],"price":"$$","location":{"address1":"321 Victor Ave","address2":"","address3":"","city":"Victor","zip_code":"80860","country":"US","state":"CO","display_address":["321 Victor Ave","Victor, CO 80860"]},"phone":"+17196893553","display_phone":"(719) 689-3553","distance":9858.72898090371},{"id":"GwTcSnNwO3ZDkobrG4qezw","alias":"mountain-view-motor-inn-fort-garland","name":"Mountain View Motor Inn","image_url":"https://s3-media4.fl.yelpcdn.com/bphoto/KNnd2uuKkRnjuUYi5W9P2g/o.jpg","is_closed":false,"url":"https://www.yelp.com/biz/mountain-view-motor-inn-fort-garland?adjust_creative=lQBDH1JJAA5pG8BZW_9NVQ\u0026utm_campaign=yelp_api_v3\u0026utm_medium=api_v3_business_search\u0026utm_source=lQBDH1JJAA5pG8BZW_9NVQ","review_count":12,"categories":[{"alias":"hotels","title":"Hotels"}],"rating":4.5,"coordinates":{"latitude":37.427690200315,"longitude":-105.432613962566},"transactions":[],"price":"$$$$","location":{"address1":"411 US Hwy 160","address2":null,"address3":"","city":"Fort Garland","zip_code":"81133","country":"US","state":"CO","display_address":["411 US Hwy 160","Fort Garland, CO 81133"]},"phone":"+17193792993","display_phone":"(719) 379-2993","distance":11099.560133045416},{"id":"Y-bgr6ZDT0sU8LrJoeYcAQ","alias":"el-convento-bed-and-breakfast-san-luis","name":"El Convento Bed \u0026 Breakfast","image_url":"","is_closed":false,"url":"https://www.yelp.com/biz/el-convento-bed-and-breakfast-san-luis?adjust_creative=lQBDH1JJAA5pG8BZW_9NVQ\u0026utm_campaign=yelp_api_v3\u0026utm_medium=api_v3_business_search\u0026utm_source=lQBDH1JJAA5pG8BZW_9NVQ","review_count":1,"categories":[{"alias":"hotels","title":"Hotels"},{"alias":"bedbreakfast","title":"Bed \u0026 Breakfast"}],"rating":4.0,"coordinates":{"latitude":37.20135,"longitude":-105.42437},"transactions":[],"location":{"address1":"512 Church Pl","address2":"","address3":"","city":"San Luis","zip_code":"81152","country":"US","state":"CO","display_address":["512 Church Pl","San Luis, CO 81152"]},"phone":"+17196724223","display_phone":"(719) 672-4223","distance":6014.608018282799},{"id":"snL4PXAmMJYPuN_ixf9-LA","alias":"sangre-de-cristo-motel-questa","name":"Sangre De Cristo Motel","image_url":"","is_closed":false,"url":"https://www.yelp.com/biz/sangre-de-cristo-motel-questa?adjust_creative=lQBDH1JJAA5pG8BZW_9NVQ\u0026utm_campaign=yelp_api_v3\u0026utm_medium=api_v3_business_search\u0026utm_source=lQBDH1JJAA5pG8BZW_9NVQ","review_count":1,"categories":[{"alias":"hotels","title":"Hotels"},{"alias":"restaurants","title":"Restaurants"}],"rating":2.0,"coordinates":{"latitude":36.70418,"longitude":-105.59578},"transactions":[],"location":{"address1":"Highway 522 \u0026 38","address2":"","address3":"","city":"Questa","zip_code":"87556","country":"US","state":"NM","display_address":["Highway 522 \u0026 38","Questa, NM 87556"]},"phone":"+15755860300","display_phone":"(575) 586-0300","distance":11276.284459232727},{"id":"h1EFLoYs0TeMH4nmksls6w","alias":"el-pueblo-lodge-taos","name":"El Pueblo Lodge","image_url":"https://s3-media4.fl.yelpcdn.com/bphoto/-P12B8bf-cn-AR7ygBIM4g/o.jpg","is_closed":false,"url":"https://www.yelp.com/biz/el-pueblo-lodge-taos?adjust_creative=lQBDH1JJAA5pG8BZW_9NVQ\u0026utm_campaign=yelp_api_v3\u0026utm_medium=api_v3_business_search\u0026utm_source=lQBDH1JJAA5pG8BZW_9NVQ","review_count":96,"categories":[{"alias":"hotels","title":"Hotels"}],"rating":4.5,"coordinates":{"latitude":36.413438,"longitude":-105.568985},"transactions":[],"price":"$$","location":{"address1":"412 Paseo Del Pueblo Norte","address2":"","address3":"","city":"Taos","zip_code":"87571","country":"US","state":"NM","display_address":["412 Paseo Del Pueblo Norte","Taos, NM 87571"]},"phone":"+15757588700","display_phone":"(575) 758-8700","distance":777.9182939851034}],[{"id":"GNY8tKlbNO7uWL8UWUijgQ","alias":"lawson-adventure-park-and-resort-lawson","name":"Lawson Adventure Park \u0026 Resort","image_url":"https://s3-media2.fl.yelpcdn.com/bphoto/jnvgoNUqZUvHsG9H3d82GQ/o.jpg","is_closed":false,"url":"https://www.yelp.com/biz/lawson-adventure-park-and-resort-lawson?adjust_creative=lQBDH1JJAA5pG8BZW_9NVQ\u0026utm_campaign=yelp_api_v3\u0026utm_medium=api_v3_business_search\u0026utm_source=lQBDH1JJAA5pG8BZW_9NVQ","review_count":18,"categories":[{"alias":"climbing","title":"Climbing"},{"alias":"vacation_rentals","title":"Vacation Rentals"},{"alias":"rafting","title":"Rafting/Kayaking"}],"rating":3.5,"coordinates":{"latitude":39.7624627853717,"longitude":-105.639557542328},"transactions":[],"location":{"address1":"3440 Alvarado Rd","address2":null,"address3":"","city":"Lawson","zip_code":"80436","country":"US","state":"CO","display_address":["3440 Alvarado Rd","Lawson, CO 80436"]},"phone":"+18553727238","display_phone":"(855) 372-7238","distance":66518.43039501451},{"id":"0UuWWdE3m17okf-c--epBA","alias":"woodland-inn-woodland-park","name":"Woodland Inn","image_url":"https://s3-media1.fl.yelpcdn.com/bphoto/FKPumKVy51iNoQEhLB-ZqQ/o.jpg","is_closed":false,"url":"https://www.yelp.com/biz/woodland-inn-woodland-park?adjust_creative=lQBDH1JJAA5pG8BZW_9NVQ\u0026utm_campaign=yelp_api_v3\u0026utm_medium=api_v3_business_search\u0026utm_source=lQBDH1JJAA5pG8BZW_9NVQ","review_count":4,"categories":[{"alias":"hotels","title":"Hotels"},{"alias":"bedbreakfast","title":"Bed \u0026 Breakfast"}],"rating":5.0,"coordinates":{"latitude":38.980934,"longitude":-105.039215},"transactions":[],"price":"$$","location":{"address1":"159 Trull Rd","address2":"","address3":"","city":"Woodland Park","zip_code":"80863","country":"US","state":"CO","display_address":["159 Trull Rd","Woodland Park, CO 80863"]},"phone":"+17196878209","display_phone":"(719) 687-8209","distance":7278.3454953068085},{"id":"qCeHai1HsanhmlHXqw8ybw","alias":"the-black-monarch-victor","name":"The Black Monarch","image_url":"https://s3-media3.fl.yelpcdn.com/bphoto/c0flXMsXK_bFQVz6vIWHgQ/o.jpg","is_closed":false,"url":"https://www.yelp.com/biz/the-black-monarch-victor?adjust_creative=lQBDH1JJAA5pG8BZW_9NVQ\u0026utm_campaign=yelp_api_v3\u0026utm_medium=api_v3_business_search\u0026utm_source=lQBDH1JJAA5pG8BZW_9NVQ","review_count":1,"categories":[{"alias":"hotels","title":"Hotels"}],"rating":5.0,"coordinates":{"latitude":38.71038,"longitude":-105.14029},"transactions":[],"location":{"address1":"301 Victor Ave","address2":"","address3":null,"city":"Victor","zip_code":"80860","country":"US","state":"CO","display_address":["301 Victor Ave","Victor, CO 80860"]},"phone":"+17205851709","display_phone":"(720) 585-1709","distance":9873.543319477338},{"id":"GwTcSnNwO3ZDkobrG4qezw","alias":"mountain-view-motor-inn-fort-garland","name":"Mountain View Motor Inn","image_url":"https://s3-media4.fl.yelpcdn.com/bphoto/KNnd2uuKkRnjuUYi5W9P2g/o.jpg","is_closed":false,"url":"https://www.yelp.com/biz/mountain-view-motor-inn-fort-garland?adjust_creative=lQBDH1JJAA5pG8BZW_9NVQ\u0026utm_campaign=yelp_api_v3\u0026utm_medium=api_v3_business_search\u0026utm_source=lQBDH1JJAA5pG8BZW_9NVQ","review_count":12,"categories":[{"alias":"hotels","title":"Hotels"}],"rating":4.5,"coordinates":{"latitude":37.427690200315,"longitude":-105.432613962566},"transactions":[],"price":"$$$$","location":{"address1":"411 US Hwy 160","address2":null,"address3":"","city":"Fort Garland","zip_code":"81133","country":"US","state":"CO","display_address":["411 US Hwy 160","Fort Garland, CO 81133"]},"phone":"+17193792993","display_phone":"(719) 379-2993","distance":11099.560133045416},{"id":"Y-bgr6ZDT0sU8LrJoeYcAQ","alias":"el-convento-bed-and-breakfast-san-luis","name":"El Convento Bed \u0026 Breakfast","image_url":"","is_closed":false,"url":"https://www.yelp.com/biz/el-convento-bed-and-breakfast-san-luis?adjust_creative=lQBDH1JJAA5pG8BZW_9NVQ\u0026utm_campaign=yelp_api_v3\u0026utm_medium=api_v3_business_search\u0026utm_source=lQBDH1JJAA5pG8BZW_9NVQ","review_count":1,"categories":[{"alias":"hotels","title":"Hotels"},{"alias":"bedbreakfast","title":"Bed \u0026 Breakfast"}],"rating":4.0,"coordinates":{"latitude":37.20135,"longitude":-105.42437},"transactions":[],"location":{"address1":"512 Church Pl","address2":"","address3":"","city":"San Luis","zip_code":"81152","country":"US","state":"CO","display_address":["512 Church Pl","San Luis, CO 81152"]},"phone":"+17196724223","display_phone":"(719) 672-4223","distance":6014.608018282799},{"id":"2KpcR7mCZ9qVOkpU1FzKSQ","alias":"woodlands-red-river","name":"Woodlands","image_url":"","is_closed":false,"url":"https://www.yelp.com/biz/woodlands-red-river?adjust_creative=lQBDH1JJAA5pG8BZW_9NVQ\u0026utm_campaign=yelp_api_v3\u0026utm_medium=api_v3_business_search\u0026utm_source=lQBDH1JJAA5pG8BZW_9NVQ","review_count":1,"categories":[{"alias":"hotels","title":"Hotels"}],"rating":5.0,"coordinates":{"latitude":36.7098358,"longitude":-105.4219409},"transactions":[],"location":{"address1":"1301 W Main","address2":"","address3":"","city":"Red River","zip_code":"87558","country":"US","state":"NM","display_address":["1301 W Main","Red River, NM 87558"]},"phone":"+15757542303","display_phone":"(575) 754-2303","distance":10696.362135537289},{"id":"TU5xrTRODoAat4jH__3lkg","alias":"el-monte-sagrado-taos-2","name":"El Monte Sagrado","image_url":"https://s3-media1.fl.yelpcdn.com/bphoto/Zg64AtETqdYJzFeSoryqzg/o.jpg","is_closed":false,"url":"https://www.yelp.com/biz/el-monte-sagrado-taos-2?adjust_creative=lQBDH1JJAA5pG8BZW_9NVQ\u0026utm_campaign=yelp_api_v3\u0026utm_medium=api_v3_business_search\u0026utm_source=lQBDH1JJAA5pG8BZW_9NVQ","review_count":130,"categories":[{"alias":"hotels","title":"Hotels"}],"rating":3.5,"coordinates":{"latitude":36.401856,"longitude":-105.567988},"transactions":[],"price":"$$$","location":{"address1":"317 Kit Carson Rd","address2":"","address3":"","city":"Taos","zip_code":"87571","country":"US","state":"NM","display_address":["317 Kit Carson Rd","Taos, NM 87571"]},"phone":"+15757583502","display_phone":"(575) 758-3502","distance":750.1323581537542}],[{"id":"AXGGtIeyKRRfUlZ3SYgu6A","alias":"colorado-brewery-bus-denver","name":"Colorado Brewery Bus","image_url":"https://s3-media2.fl.yelpcdn.com/bphoto/xvY7OydDgPymfBXxx82AEw/o.jpg","is_closed":false,"url":"https://www.yelp.com/biz/colorado-brewery-bus-denver?adjust_creative=lQBDH1JJAA5pG8BZW_9NVQ\u0026utm_campaign=yelp_api_v3\u0026utm_medium=api_v3_business_search\u0026utm_source=lQBDH1JJAA5pG8BZW_9NVQ","review_count":42,"categories":[{"alias":"breweries","title":"Breweries"},{"alias":"tours","title":"Tours"}],"rating":4.0,"coordinates":{"latitude":39.7098923,"longitude":-104.9922485},"transactions":[],"price":"$$","location":{"address1":"420 S Cherokee St","address2":null,"address3":"","city":"Denver","zip_code":"80209","country":"US","state":"CO","display_address":["420 S Cherokee St","Denver, CO 80209"]},"phone":"+17204433635","display_phone":"(720) 443-3635","distance":38182.47829603543},{"id":"Lw8utfJ8Aw8YTVL_wzZR7Q","alias":"paradox-beer-company-divide-4","name":"Paradox Beer Company","image_url":"https://s3-media2.fl.yelpcdn.com/bphoto/oBZK0WhfdNu8K_ySBxP-nw/o.jpg","is_closed":false,"url":"https://www.yelp.com/biz/paradox-beer-company-divide-4?adjust_creative=lQBDH1JJAA5pG8BZW_9NVQ\u0026utm_campaign=yelp_api_v3\u0026utm_medium=api_v3_business_search\u0026utm_source=lQBDH1JJAA5pG8BZW_9NVQ","review_count":40,"categories":[{"alias":"breweries","title":"Breweries"}],"rating":4.5,"coordinates":{"latitude":38.9443743489564,"longitude":-105.155249963156},"transactions":[],"price":"$$","location":{"address1":"10 Buffalo Ct","address2":"","address3":"","city":"Divide","zip_code":"80814","country":"US","state":"CO","display_address":["10 Buffalo Ct","Divide, CO 80814"]},"phone":"+17196868081","display_phone":"(719) 686-8081","distance":6784.33679550721},{"id":"j0CYUSW_3okjFrVgryBx7w","alias":"taos-mesa-brewing-taos-tap-room-taos","name":"Taos Mesa Brewing Taos Tap Room","image_url":"https://s3-media4.fl.yelpcdn.com/bphoto/zXJjvw6EGYxTIa9gxngSTg/o.jpg","is_closed":false,"url":"https://www.yelp.com/biz/taos-mesa-brewing-taos-tap-room-taos?adjust_creative=lQBDH1JJAA5pG8BZW_9NVQ\u0026utm_campaign=yelp_api_v3\u0026utm_medium=api_v3_business_search\u0026utm_source=lQBDH1JJAA5pG8BZW_9NVQ","review_count":168,"categories":[{"alias":"pizza","title":"Pizza"},{"alias":"breweries","title":"Breweries"},{"alias":"pubs","title":"Pubs"}],"rating":4.0,"coordinates":{"latitude":36.4035996,"longitude":-105.5743568},"transactions":[],"price":"$$","location":{"address1":"201 Paseo Del Pueblo Sur","address2":null,"address3":"","city":"Taos","zip_code":"87571","country":"US","state":"NM","display_address":["201 Paseo Del Pueblo Sur","Taos, NM 87571"]},"phone":"+15757581900","display_phone":"(575) 758-1900","distance":421.85080942428925}],[],[{"id":"LmfU13EiInyCTkFIN4pVLw","alias":"colorado-fly-fishing-sedalia","name":"Colorado Fly Fishing","image_url":"https://s3-media2.fl.yelpcdn.com/bphoto/_fDC72ZR73jiA-Eaey_Jmw/o.jpg","is_closed":false,"url":"https://www.yelp.com/biz/colorado-fly-fishing-sedalia?adjust_creative=lQBDH1JJAA5pG8BZW_9NVQ\u0026utm_campaign=yelp_api_v3\u0026utm_medium=api_v3_business_search\u0026utm_source=lQBDH1JJAA5pG8BZW_9NVQ","review_count":4,"categories":[{"alias":"huntingfishingsupplies","title":"Hunting \u0026 Fishing Supplies"},{"alias":"fishing","title":"Fishing"}],"rating":2.0,"coordinates":{"latitude":39.3833427429199,"longitude":-105.071846008301},"transactions":[],"location":{"address1":"1668 N State Hwy 67","address2":null,"address3":"","city":"Sedalia","zip_code":"80135","country":"US","state":"CO","display_address":["1668 N State Hwy 67","Sedalia, CO 80135"]},"phone":"+19704061538","display_phone":"(970) 406-1538","distance":2190.266806143878},{"id":"8W5oyrwOj5V_nmGlpVo1Sw","alias":"team-telecycle-woodland-park","name":"Team Telecycle","image_url":"https://s3-media4.fl.yelpcdn.com/bphoto/lqqWuiyuNRANKAjbHmWjAQ/o.jpg","is_closed":false,"url":"https://www.yelp.com/biz/team-telecycle-woodland-park?adjust_creative=lQBDH1JJAA5pG8BZW_9NVQ\u0026utm_campaign=yelp_api_v3\u0026utm_medium=api_v3_business_search\u0026utm_source=lQBDH1JJAA5pG8BZW_9NVQ","review_count":3,"categories":[{"alias":"bikes","title":"Bikes"},{"alias":"bikerentals","title":"Bike Rentals"},{"alias":"bike_repair_maintenance","title":"Bike Repair/Maintenance"}],"rating":5.0,"coordinates":{"latitude":38.988967,"longitude":-105.046615},"transactions":[],"location":{"address1":"615 S Baldwin St","address2":"","address3":"","city":"Woodland Park","zip_code":"80863","country":"US","state":"CO","display_address":["615 S Baldwin St","Woodland Park, CO 80863"]},"phone":"+17196876165","display_phone":"(719) 687-6165","distance":6411.503174761222},{"id":"8iC4ixBcB2qYn5a1Of5RLg","alias":"nicks-bikes-pueblo-west-2","name":"Nick's Bikes","image_url":"https://s3-media4.fl.yelpcdn.com/bphoto/NsIQmu2gqZ1DwADfRRsYjA/o.jpg","is_closed":false,"url":"https://www.yelp.com/biz/nicks-bikes-pueblo-west-2?adjust_creative=lQBDH1JJAA5pG8BZW_9NVQ\u0026utm_campaign=yelp_api_v3\u0026utm_medium=api_v3_business_search\u0026utm_source=lQBDH1JJAA5pG8BZW_9NVQ","review_count":5,"categories":[{"alias":"bikes","title":"Bikes"},{"alias":"bike_repair_maintenance","title":"Bike Repair/Maintenance"}],"rating":4.0,"coordinates":{"latitude":38.338927084019,"longitude":-104.740650951862},"transactions":[],"price":"$$$","location":{"address1":"74 N  Component Dr","address2":"Suite 140","address3":null,"city":"Pueblo West","zip_code":"81007","country":"US","state":"CO","display_address":["74 N  Component Dr","Suite 140","Pueblo West, CO 81007"]},"phone":"+17196471150","display_phone":"(719) 647-1150","distance":50298.872802952465},{"id":"3abAgiy4KFjwmsptXMpeZQ","alias":"taos-mountain-outfitters-taos-2","name":"Taos Mountain Outfitters","image_url":"https://s3-media2.fl.yelpcdn.com/bphoto/eAmT1ow7h9k0FeJLGFfRrg/o.jpg","is_closed":false,"url":"https://www.yelp.com/biz/taos-mountain-outfitters-taos-2?adjust_creative=lQBDH1JJAA5pG8BZW_9NVQ\u0026utm_campaign=yelp_api_v3\u0026utm_medium=api_v3_business_search\u0026utm_source=lQBDH1JJAA5pG8BZW_9NVQ","review_count":14,"categories":[{"alias":"outdoorgear","title":"Outdoor Gear"},{"alias":"shoes","title":"Shoe Stores"},{"alias":"sportswear","title":"Sports Wear"}],"rating":3.5,"coordinates":{"latitude":36.406866,"longitude":-105.574918},"transactions":[],"price":"$$","location":{"address1":"113 N Plz","address2":"","address3":"","city":"Taos","zip_code":"87571","country":"US","state":"NM","display_address":["113 N Plz","Taos, NM 87571"]},"phone":"+15757589292","display_phone":"(575) 758-9292","distance":171.06590770834322}],[{"id":"PO2ilXa1x4gLT_cnG_vuRw","alias":"waterton-tavern-littleton","name":"Waterton Tavern","image_url":"https://s3-media1.fl.yelpcdn.com/bphoto/hWp5wyBD3Ml_o8h7fHQCOA/o.jpg","is_closed":false,"url":"https://www.yelp.com/biz/waterton-tavern-littleton?adjust_creative=lQBDH1JJAA5pG8BZW_9NVQ\u0026utm_campaign=yelp_api_v3\u0026utm_medium=api_v3_business_search\u0026utm_source=lQBDH1JJAA5pG8BZW_9NVQ","review_count":86,"categories":[{"alias":"tradamerican","title":"American (Traditional)"}],"rating":4.0,"coordinates":{"latitude":39.484562787981,"longitude":-105.07487568522},"transactions":[],"price":"$$","location":{"address1":"8361 N Rampart Range Rd","address2":"Ste B107","address3":"","city":"Littleton","zip_code":"80125","country":"US","state":"CO","display_address":["8361 N Rampart Range Rd","Ste B107","Littleton, CO 80125"]},"phone":"+17203622337","display_phone":"(720) 362-2337","distance":12961.137875200735},{"id":"MjnHmiI4WVVOvG8By9zg4g","alias":"hungry-bear-woodland-park-2","name":"Hungry Bear","image_url":"https://s3-media2.fl.yelpcdn.com/bphoto/uP3cuge_EXMVRvY4DY9gpQ/o.jpg","is_closed":false,"url":"https://www.yelp.com/biz/hungry-bear-woodland-park-2?adjust_creative=lQBDH1JJAA5pG8BZW_9NVQ\u0026utm_campaign=yelp_api_v3\u0026utm_medium=api_v3_business_search\u0026utm_source=lQBDH1JJAA5pG8BZW_9NVQ","review_count":213,"categories":[{"alias":"breakfast_brunch","title":"Breakfast \u0026 Brunch"},{"alias":"sandwiches","title":"Sandwiches"},{"alias":"bakeries","title":"Bakeries"}],"rating":4.0,"coordinates":{"latitude":38.9944682,"longitude":-105.0514645},"transactions":[],"price":"$","location":{"address1":"111 E Midland Ave","address2":"","address3":"","city":"Woodland Park","zip_code":"80863","country":"US","state":"CO","display_address":["111 E Midland Ave","Woodland Park, CO 80863"]},"phone":"+17196875912","display_phone":"(719) 687-5912","distance":5820.660712164451},{"id":"dsShN3PjS2zjIhPLGPHMEQ","alias":"fortune-club-victor","name":"Fortune Club","image_url":"https://s3-media1.fl.yelpcdn.com/bphoto/VkDuQ5qrVehBk4B1VqI8cg/o.jpg","is_closed":false,"url":"https://www.yelp.com/biz/fortune-club-victor?adjust_creative=lQBDH1JJAA5pG8BZW_9NVQ\u0026utm_campaign=yelp_api_v3\u0026utm_medium=api_v3_business_search\u0026utm_source=lQBDH1JJAA5pG8BZW_9NVQ","review_count":24,"categories":[{"alias":"breakfast_brunch","title":"Breakfast \u0026 Brunch"},{"alias":"tradamerican","title":"American (Traditional)"}],"rating":3.5,"coordinates":{"latitude":38.7099609375,"longitude":-105.140365600586},"transactions":[],"price":"$","location":{"address1":"300 Victor Ave","address2":"","address3":"","city":"Victor","zip_code":"80860","country":"US","state":"CO","display_address":["300 Victor Ave","Victor, CO 80860"]},"phone":"+17196892623","display_phone":"(719) 689-2623","distance":9830.618429976199},{"id":"Ns-XOBjB5ymVzFbobsVdjg","alias":"bearclaw-bakery-and-cafe-taos-2","name":"Bearclaw Bakery and Cafe","image_url":"https://s3-media2.fl.yelpcdn.com/bphoto/ilQ-RU0rNlNyFXEbQkCayg/o.jpg","is_closed":false,"url":"https://www.yelp.com/biz/bearclaw-bakery-and-cafe-taos-2?adjust_creative=lQBDH1JJAA5pG8BZW_9NVQ\u0026utm_campaign=yelp_api_v3\u0026utm_medium=api_v3_business_search\u0026utm_source=lQBDH1JJAA5pG8BZW_9NVQ","review_count":135,"categories":[{"alias":"cafes","title":"Cafes"},{"alias":"bakeries","title":"Bakeries"},{"alias":"breakfast_brunch","title":"Breakfast \u0026 Brunch"}],"rating":4.5,"coordinates":{"latitude":36.4109252612049,"longitude":-105.570304974066},"transactions":[],"price":"$$","location":{"address1":"228 Paseo Del Pueblo Norte","address2":"Ste A","address3":"","city":"Taos","zip_code":"87571","country":"US","state":"NM","display_address":["228 Paseo Del Pueblo Norte","Ste A","Taos, NM 87571"]},"phone":"+15757581332","display_phone":"(575) 758-1332","distance":477.72332366517804}],[{"id":"yHW83bWXOL162hkVV-5stQ","alias":"jps-asian-bistro-littleton","name":"JP's Asian Bistro","image_url":"https://s3-media1.fl.yelpcdn.com/bphoto/wERTlgMuWayJ8yVnW5WNDg/o.jpg","is_closed":false,"url":"https://www.yelp.com/biz/jps-asian-bistro-littleton?adjust_creative=lQBDH1JJAA5pG8BZW_9NVQ\u0026utm_campaign=yelp_api_v3\u0026utm_medium=api_v3_business_search\u0026utm_source=lQBDH1JJAA5pG8BZW_9NVQ","review_count":76,"categories":[{"alias":"asianfusion","title":"Asian Fusion"},{"alias":"sushi","title":"Sushi Bars"}],"rating":4.0,"coordinates":{"latitude":39.4830551147461,"longitude":-105.073890686035},"transactions":[],"price":"$$","location":{"address1":"8351 N Rampart Range Rd","address2":"","address3":"","city":"Littleton","zip_code":"80125","country":"US","state":"CO","display_address":["8351 N Rampart Range Rd","Littleton, CO 80125"]},"phone":"+13039798889","display_phone":"(303) 979-8889","distance":12773.814907251308},{"id":"wD7LZlRl0EFeagcryXa7cA","alias":"fortune-dragon-woodland-park","name":"Fortune Dragon","image_url":"https://s3-media2.fl.yelpcdn.com/bphoto/OWLbEJmFElsE8GYh5yVAng/o.jpg","is_closed":false,"url":"https://www.yelp.com/biz/fortune-dragon-woodland-park?adjust_creative=lQBDH1JJAA5pG8BZW_9NVQ\u0026utm_campaign=yelp_api_v3\u0026utm_medium=api_v3_business_search\u0026utm_source=lQBDH1JJAA5pG8BZW_9NVQ","review_count":54,"categories":[{"alias":"chinese","title":"Chinese"}],"rating":4.0,"coordinates":{"latitude":38.992534,"longitude":-105.049064},"transactions":[],"price":"$","location":{"address1":"280 E US Hwy 24","address2":"","address3":"","city":"Woodland Park","zip_code":"80863","country":"US","state":"CO","display_address":["280 E US Hwy 24","Woodland Park, CO 80863"]},"phone":"+17196878883","display_phone":"(719) 687-8883","distance":6153.942026498806},{"id":"MyI2BOuyovNFSyVG1cxewg","alias":"yu-garden-taos","name":"Yu Garden","image_url":"https://s3-media1.fl.yelpcdn.com/bphoto/lqaY5IMKseWodXtueRlH2g/o.jpg","is_closed":false,"url":"https://www.yelp.com/biz/yu-garden-taos?adjust_creative=lQBDH1JJAA5pG8BZW_9NVQ\u0026utm_campaign=yelp_api_v3\u0026utm_medium=api_v3_business_search\u0026utm_source=lQBDH1JJAA5pG8BZW_9NVQ","review_count":66,"categories":[{"alias":"chinese","title":"Chinese"}],"rating":4.0,"coordinates":{"latitude":36.38385,"longitude":-105.58646},"transactions":[],"price":"$$","location":{"address1":"1033 Paseo Del Pueblo Sur","address2":"","address3":"","city":"Taos","zip_code":"87571","country":"US","state":"NM","display_address":["1033 Paseo Del Pueblo Sur","Taos, NM 87571"]},"phone":"+15757587828","display_phone":"(575) 758-7828","distance":2876.580912479179}],[{"id":"PO2ilXa1x4gLT_cnG_vuRw","alias":"waterton-tavern-littleton","name":"Waterton Tavern","image_url":"https://s3-media1.fl.yelpcdn.com/bphoto/hWp5wyBD3Ml_o8h7fHQCOA/o.jpg","is_closed":false,"url":"https://www.yelp.com/biz/waterton-tavern-littleton?adjust_creative=lQBDH1JJAA5pG8BZW_9NVQ\u0026utm_campaign=yelp_api_v3\u0026utm_medium=api_v3_business_search\u0026utm_source=lQBDH1JJAA5pG8BZW_9NVQ","review_count":86,"categories":[{"alias":"tradamerican","title":"American (Traditional)"}],"rating":4.0,"coordinates":{"latitude":39.484562787981,"longitude":-105.07487568522},"transactions":[],"price":"$$","location":{"address1":"8361 N Rampart Range Rd","address2":"Ste B107","address3":"","city":"Littleton","zip_code":"80125","country":"US","state":"CO","display_address":["8361 N Rampart Range Rd","Ste B107","Littleton, CO 80125"]},"phone":"+17203622337","display_phone":"(720) 362-2337","distance":12961.137875200735},{"id":"Lw8utfJ8Aw8YTVL_wzZR7Q","alias":"paradox-beer-company-divide-4","name":"Paradox Beer Company","image_url":"https://s3-media2.fl.yelpcdn.com/bphoto/oBZK0WhfdNu8K_ySBxP-nw/o.jpg","is_closed":false,"url":"https://www.yelp.com/biz/paradox-beer-company-divide-4?adjust_creative=lQBDH1JJAA5pG8BZW_9NVQ\u0026utm_campaign=yelp_api_v3\u0026utm_medium=api_v3_business_search\u0026utm_source=lQBDH1JJAA5pG8BZW_9NVQ","review_count":40,"categories":[{"alias":"breweries","title":"Breweries"}],"rating":4.5,"coordinates":{"latitude":38.9443743489564,"longitude":-105.155249963156},"transactions":[],"price":"$$","location":{"address1":"10 Buffalo Ct","address2":"","address3":"","city":"Divide","zip_code":"80814","country":"US","state":"CO","display_address":["10 Buffalo Ct","Divide, CO 80814"]},"phone":"+17196868081","display_phone":"(719) 686-8081","distance":6784.33679550721},{"id":"WMjDBOIDaFv2Ay2REeURLg","alias":"the-side-door-restaurant-and-lounge-victor","name":"The Side Door Restaurant \u0026 Lounge","image_url":"https://s3-media2.fl.yelpcdn.com/bphoto/gC_7nh7PQ38dSqtlMeukWA/o.jpg","is_closed":false,"url":"https://www.yelp.com/biz/the-side-door-restaurant-and-lounge-victor?adjust_creative=lQBDH1JJAA5pG8BZW_9NVQ\u0026utm_campaign=yelp_api_v3\u0026utm_medium=api_v3_business_search\u0026utm_source=lQBDH1JJAA5pG8BZW_9NVQ","review_count":4,"categories":[{"alias":"tradamerican","title":"American (Traditional)"},{"alias":"lounges","title":"Lounges"}],"rating":5.0,"coordinates":{"latitude":38.7103044,"longitude":-105.1404803},"transactions":[],"location":{"address1":"321 Victor Ave","address2":null,"address3":"Victor Hotel","city":"Victor","zip_code":"80860","country":"US","state":"CO","display_address":["321 Victor Ave","Victor Hotel","Victor, CO 80860"]},"phone":"+17196895883","display_phone":"(719) 689-5883","distance":9850.742878653047},{"id":"pQKl8GJfGcoPQeeYGgpw4Q","alias":"dels-diner-fort-garland","name":"Del's Diner","image_url":"https://s3-media1.fl.yelpcdn.com/bphoto/B7YP8bYCu3dglDK2t71qtQ/o.jpg","is_closed":false,"url":"https://www.yelp.com/biz/dels-diner-fort-garland?adjust_creative=lQBDH1JJAA5pG8BZW_9NVQ\u0026utm_campaign=yelp_api_v3\u0026utm_medium=api_v3_business_search\u0026utm_source=lQBDH1JJAA5pG8BZW_9NVQ","review_count":18,"categories":[{"alias":"diners","title":"Diners"}],"rating":4.0,"coordinates":{"latitude":37.426341,"longitude":-105.429287},"transactions":[],"price":"$$","location":{"address1":"19568 Highway 160","address2":null,"address3":null,"city":"Fort Garland","zip_code":"81133","country":"US","state":"CO","display_address":["19568 Highway 160","Fort Garland, CO 81133"]},"phone":"+17193793357","display_phone":"(719) 379-3357","distance":11114.427543865992},{"id":"9wT8tinqek0CNEY_-2DQyQ","alias":"wildcats-den-questa","name":"Wildcat's Den","image_url":"https://s3-media2.fl.yelpcdn.com/bphoto/NZGUZdz8f0szkeAUs63N5g/o.jpg","is_closed":false,"url":"https://www.yelp.com/biz/wildcats-den-questa?adjust_creative=lQBDH1JJAA5pG8BZW_9NVQ\u0026utm_campaign=yelp_api_v3\u0026utm_medium=api_v3_business_search\u0026utm_source=lQBDH1JJAA5pG8BZW_9NVQ","review_count":9,"categories":[{"alias":"tradamerican","title":"American (Traditional)"}],"rating":4.5,"coordinates":{"latitude":36.7076781,"longitude":-105.5954454},"transactions":[],"price":"$","location":{"address1":"2457 Hwy 522","address2":"","address3":"","city":"Questa","zip_code":"87556","country":"US","state":"NM","display_address":["2457 Hwy 522","Questa, NM 87556"]},"phone":"+15755861119","display_phone":"(575) 586-1119","distance":10935.646980348929},{"id":"P4xNIpNlSLQm6STXVuTWgQ","alias":"treehouse-bar-and-lounge-taos","name":"Treehouse Bar \u0026 Lounge","image_url":"https://s3-media2.fl.yelpcdn.com/bphoto/ap6rLvX-WACAjJknTemvPw/o.jpg","is_closed":false,"url":"https://www.yelp.com/biz/treehouse-bar-and-lounge-taos?adjust_creative=lQBDH1JJAA5pG8BZW_9NVQ\u0026utm_campaign=yelp_api_v3\u0026utm_medium=api_v3_business_search\u0026utm_source=lQBDH1JJAA5pG8BZW_9NVQ","review_count":33,"categories":[{"alias":"bars","title":"Bars"},{"alias":"tradamerican","title":"American (Traditional)"}],"rating":5.0,"coordinates":{"latitude":36.4084756423191,"longitude":-105.573771223426},"transactions":[],"price":"$$","location":{"address1":"123 Bent St","address2":"","address3":"","city":"Taos","zip_code":"87571","country":"US","state":"NM","display_address":["123 Bent St","Taos, NM 87571"]},"phone":"+15757581009","display_phone":"(575) 758-1009","distance":150.32123644744814}],[{"id":"S5iH7mOuYk6sdhIqJTZxMw","alias":"hampden-auto-body-englewood","name":"Hampden Auto Body","image_url":"https://s3-media1.fl.yelpcdn.com/bphoto/Za5ELqp6MBScy3WnL8sFdw/o.jpg","is_closed":false,"url":"https://www.yelp.com/biz/hampden-auto-body-englewood?adjust_creative=lQBDH1JJAA5pG8BZW_9NVQ\u0026utm_campaign=yelp_api_v3\u0026utm_medium=api_v3_business_search\u0026utm_source=lQBDH1JJAA5pG8BZW_9NVQ","review_count":25,"categories":[{"alias":"bodyshops","title":"Body Shops"}],"rating":4.5,"coordinates":{"latitude":39.653736114502,"longitude":-105.022987365723},"transactions":[],"location":{"address1":"2801 W Hampden Ave","address2":"","address3":"","city":"Englewood","zip_code":"80110","country":"US","state":"CO","display_address":["2801 W Hampden Ave","Englewood, CO 80110"]},"phone":"+13037610677","display_phone":"(303) 761-0677","distance":31764.508346824034}],[],[]]}